- name: UCLA
  latitude: 34.0689
  longitude: -118.4452
- name: Port Jefferson
  latitude: 40.9465
  longitude: -73.0690
- name: Juelich
  country: Germany
  latitude: 50.9215
  longitude: 6.3626
- name: Dublin
  country: Ireland
  latitude: 53.3498
  longitude: -6.2603
- name: Manila
  country: Philippines
  latitude: 14.5995
  longitude: 120.9842